[
  {
    "business_name": "Google",
    "business_address": "1600 Amphitheatre Parkway, Mountain View, CA, 94043",
    "business_lat": 37.423199,
    "business_lng": -122.084068
  },
  {
    "business_name": "Facebook",
    "business_address": "1 Hacker Way, Menlo Park, CA, 94025",
    "business_lat": 37.484928,
    "business_lng": -122.148201
  },
  {
    "business_name": "Apple",
    "business_address": "1 Apple Park Way. Cupertino, CA, 95014",
    "business_lat": 37.332279,
    "business_lng": -122.010979
  },
  {
    "business_name": "Microsoft",
    "business_address": "1 Microsoft Way, Redmond, WA, 98052",
    "business_lat": 47.639622,
    "business_lng": -122.130608
  },
  {
    "business_name": "Comcast",
    "business_address": "1701 JFK Boulevard Philadelphia, PA, 19103",
    "business_lat": 39.954820,
    "business_lng": -75.168700
  },
  {
    "business_name": "Texas Instruments",
    "business_address": "12500 Ti Boulevard, Dallas, TX, 75243",
    "business_lat": 32.910474,
    "business_lng": -96.75815
  }
]
